dataset name,correct name,latitude,longitude
Singarpur,Singarpur,20.691,86.507
Barbill,Barbil,21.656,85.643
Baria,Baria,21.833,85.684
Bagdofa,Bagda,21.498,87.086
Rasamtala,Rasamtala,21.771,86.003
Labda,Labanga,20.916,86.1
Batupondugandi,Banpandugandi,22.029,86.135
Tisira,Tingiria,21.996,86.002
Jashipur,Jashipur,21.969,86.079
Deogaon,Deogaon,21.164,86.049
Sarangarh,Saranga,20.523,86.02
Tikarpara,Tikarpada,20.607,84.792
